{
  "baghdad": {"name":"بغداد","lat":33.3152,"lng":44.3661},
  "basra": {"name":"البصرة","lat":30.5085,"lng":47.7835},
  "nineveh": {"name":"نينوى / الموصل","lat":36.3400,"lng":43.1300},
  "erbil": {"name":"أربيل","lat":36.1911,"lng":44.0092},
  "sulaymaniyah": {"name":"السليمانية","lat":35.5613,"lng":45.4302},
  "dohuk": {"name":"دهوك","lat":36.8667,"lng":42.9833},
  "kirkuk": {"name":"كركوك","lat":35.4681,"lng":44.3922},
  "najaf": {"name":"النجف","lat":31.9950,"lng":44.3140},
  "karbala": {"name":"كربلاء","lat":32.6160,"lng":44.0330},
  "babylon": {"name":"بابل / الحلة","lat":32.4721,"lng":44.4217},
  "wasit": {"name":"واسط / الكوت","lat":32.5000,"lng":45.8333},
  "diyala": {"name":"ديالى / بعقوبة","lat":33.7540,"lng":44.6050},
  "anbar": {"name":"الأنبار / الرمادي","lat":33.4250,"lng":43.3000},
  "saladin": {"name":"صلاح الدين / تكريت","lat":34.6070,"lng":43.6780},
  "maysan": {"name":"ميسان / العمارة","lat":31.8356,"lng":47.1442},
  "dhiqar": {"name":"ذي قار / الناصرية","lat":31.0579,"lng":46.2573},
  "muthanna": {"name":"المثنى / السماوة","lat":31.3189,"lng":45.2806},
  "qadisiyyah": {"name":"القادسية / الديوانية","lat":31.9929,"lng":44.9255}
}
